{
"type": "FeatureCollection",
"crs": { "type": "name", "properties": { "name": "urn:ogc:def:crs:OGC:1.3:CRS84" } },
                                                                                
"features": [
{ "type": "Feature", "properties": { "ID": 7.0, "TERMINAL_N": "A32000", "NAME": "Fan Pier" }, "geometry": { "type": "Point", "coordinates": [ -71.044624, 42.353412 ] } },
{ "type": "Feature", "properties": { "ID": 8.0, "TERMINAL_N": "A32001", "NAME": "Union Square - Brighton Ave. at Cambridge St." }, "geometry": { "type": "Point", "coordinates": [ -71.137313, 42.353334 ] } },
{ "type": "Feature", "properties": { "ID": 9.0, "TERMINAL_N": "A32002", "NAME": "Agganis Arena - 925 Comm Ave." }, "geometry": { "type": "Point", "coordinates": [ -71.116174, 42.351313 ] } },
{ "type": "Feature", "properties": { "ID": 10.0, "TERMINAL_N": "A32003", "NAME": "B.U. Central - 725 Comm. Ave." }, "geometry": { "type": "Point", "coordinates": [ -71.105884, 42.350075 ] } },
{ "type": "Feature", "properties": { "ID": 11.0, "TERMINAL_N": "A32004", "NAME": "Longwood Ave \/ Binney St" }, "geometry": { "type": "Point", "coordinates": [ -71.1065, 42.338629 ] } },
{ "type": "Feature", "properties": { "ID": 15.0, "TERMINAL_N": "A32005", "NAME": "Harvard Real Estate - Brighton Mills - 370 Western Ave" }, "geometry": { "type": "Point", "coordinates": [ -71.13802, 42.361667 ] } },
{ "type": "Feature", "properties": { "ID": 17.0, "TERMINAL_N": "A32006", "NAME": "Harvard University Housing - 111 Western Ave. at Soldiers Field Park" }, "geometry": { "type": "Point", "coordinates": [ -71.119581, 42.365074 ] } },
{ "type": "Feature", "properties": { "ID": 18.0, "TERMINAL_N": "A32007", "NAME": "Harvard Real Estate - 219 Western Ave. at North Harvard St." }, "geometry": { "type": "Point", "coordinates": [ -71.129791, 42.36337 ] } },
{ "type": "Feature", "properties": { "ID": 19.0, "TERMINAL_N": "A32008", "NAME": "Buswell Park" }, "geometry": { "type": "Point", "coordinates": [ -71.105828, 42.347527 ] } },
{ "type": "Feature", "properties": { "ID": 25.0, "TERMINAL_N": "A32009", "NAME": "Tremont St \/ W Newton St" }, "geometry": { "type": "Point", "coordinates": [ -71.076847, 42.341332 ] } },
{ "type": "Feature", "properties": { "ID": 22.0, "TERMINAL_N": "A32010", "NAME": "South Station - 700 Atlantic Ave." }, "geometry": { "type": "Point", "coordinates": [ -71.055547, 42.352175 ] } },
{ "type": "Feature", "properties": { "ID": 29.0, "TERMINAL_N": "A32011", "NAME": "Innovation Lab - 125 Western Ave. at Batten Way" }, "geometry": { "type": "Point", "coordinates": [ -71.124565, 42.363732 ] } },
{ "type": "Feature", "properties": { "ID": 41.0, "TERMINAL_N": "A32012", "NAME": "Packard's Corner - Comm. Ave. at Brighton Ave." }, "geometry": { "type": "Point", "coordinates": [ -71.123831, 42.352261 ] } },
{ "type": "Feature", "properties": { "ID": 66.0, "TERMINAL_N": "A32017", "NAME": "Allston Green District - Commonwealth Ave & Griggs St" }, "geometry": { "type": "Point", "coordinates": [ -71.13401, 42.348607 ] } },
{ "type": "Feature", "properties": { "ID": 52.0, "TERMINAL_N": "B32000", "NAME": "Newbury St \/ Hereford St" }, "geometry": { "type": "Point", "coordinates": [ -71.085954, 42.348717 ] } },
{ "type": "Feature", "properties": { "ID": 12.0, "TERMINAL_N": "B32002", "NAME": "Ruggles Station \/ Columbus Ave." }, "geometry": { "type": "Point", "coordinates": [ -71.088496, 42.335911 ] } },
{ "type": "Feature", "properties": { "ID": 14.0, "TERMINAL_N": "B32003", "NAME": "Louis Pasteur \/ Longwood Ave" }, "geometry": { "type": "Point", "coordinates": [ -71.102797, 42.337171 ] } },
{ "type": "Feature", "properties": { "ID": 20.0, "TERMINAL_N": "B32004", "NAME": "Aquarium Station - 200 Atlantic Ave." }, "geometry": { "type": "Point", "coordinates": [ -71.051601, 42.35977 ] } },
{ "type": "Feature", "properties": { "ID": 46.0, "TERMINAL_N": "B32005", "NAME": "Christian Science Plaza" }, "geometry": { "type": "Point", "coordinates": [ -71.085918, 42.343864 ] } },
{ "type": "Feature", "properties": { "ID": 3.0, "TERMINAL_N": "B32006", "NAME": "Colleges of the Fenway" }, "geometry": { "type": "Point", "coordinates": [ -71.100812, 42.340021 ] } },
{ "type": "Feature", "properties": { "ID": 24.0, "TERMINAL_N": "B32007", "NAME": "Seaport Square - Seaport Blvd. at Boston Wharf" }, "geometry": { "type": "Point", "coordinates": [ -71.045461, 42.351821 ] } },
{ "type": "Feature", "properties": { "ID": 23.0, "TERMINAL_N": "B32008", "NAME": "Mayor Thomas M. Menino - Government Center" }, "geometry": { "type": "Point", "coordinates": [ -71.059364, 42.359677 ] } },
{ "type": "Feature", "properties": { "ID": 34.0, "TERMINAL_N": "B32009", "NAME": "Overland St at Brookline Ave" }, "geometry": { "type": "Point", "coordinates": [ -71.099855, 42.346171 ] } },
{ "type": "Feature", "properties": { "ID": 33.0, "TERMINAL_N": "B32010", "NAME": "Kenmore Sq \/ Comm Ave" }, "geometry": { "type": "Point", "coordinates": [ -71.096831, 42.349046 ] } },
{ "type": "Feature", "properties": { "ID": 45.0, "TERMINAL_N": "B32011", "NAME": "Yawkey Way at Boylston St." }, "geometry": { "type": "Point", "coordinates": [ -71.09788, 42.344763 ] } },
{ "type": "Feature", "properties": { "ID": 5.0, "TERMINAL_N": "B32012", "NAME": "Northeastern U \/ North Parking Lot" }, "geometry": { "type": "Point", "coordinates": [ -71.090179, 42.341814 ] } },
{ "type": "Feature", "properties": { "ID": 30.0, "TERMINAL_N": "B32013", "NAME": "Brigham Cir \/ Huntington Ave" }, "geometry": { "type": "Point", "coordinates": [ -71.105221, 42.334073 ] } },
{ "type": "Feature", "properties": { "ID": 31.0, "TERMINAL_N": "B32014", "NAME": "Seaport Hotel" }, "geometry": { "type": "Point", "coordinates": [ -71.041747, 42.348833 ] } },
{ "type": "Feature", "properties": { "ID": 32.0, "TERMINAL_N": "B32015", "NAME": "Landmark Centre" }, "geometry": { "type": "Point", "coordinates": [ -71.102221, 42.343912 ] } },
{ "type": "Feature", "properties": { "ID": 53.0, "TERMINAL_N": "B32016", "NAME": "Beacon St \/ Mass Ave" }, "geometry": { "type": "Point", "coordinates": [ -71.089886, 42.350851 ] } },
{ "type": "Feature", "properties": { "ID": 56.0, "TERMINAL_N": "B32017", "NAME": "Dudley Square" }, "geometry": { "type": "Point", "coordinates": [ -71.0833545, 42.3281898 ] } },
{ "type": "Feature", "properties": { "ID": 55.0, "TERMINAL_N": "B32018", "NAME": "Boylston \/ Mass Ave" }, "geometry": { "type": "Point", "coordinates": [ -71.088088, 42.347265 ] } },
{ "type": "Feature", "properties": { "ID": 62.0, "TERMINAL_N": "B32019", "NAME": "Longwood Ave\/Riverway" }, "geometry": { "type": "Point", "coordinates": [ -71.109927, 42.340299 ] } },
{ "type": "Feature", "properties": { "ID": 4.0, "TERMINAL_N": "C32000", "NAME": "Tremont St. at Berkeley St." }, "geometry": { "type": "Point", "coordinates": [ -71.069616, 42.345392 ] } },
{ "type": "Feature", "properties": { "ID": 27.0, "TERMINAL_N": "C32001", "NAME": "Roxbury Crossing Station" }, "geometry": { "type": "Point", "coordinates": [ -71.094734, 42.331567 ] } },
{ "type": "Feature", "properties": { "ID": 13.0, "TERMINAL_N": "C32002", "NAME": "Boston Medical Center - 721 Mass. Ave." }, "geometry": { "type": "Point", "coordinates": [ -71.07403, 42.334057 ] } },
{ "type": "Feature", "properties": { "ID": 16.0, "TERMINAL_N": "C32003", "NAME": "Back Bay \/ South End Station" }, "geometry": { "type": "Point", "coordinates": [ -71.076163, 42.347433 ] } },
{ "type": "Feature", "properties": { "ID": 57.0, "TERMINAL_N": "C32004", "NAME": "Columbus Ave. at Mass. Ave." }, "geometry": { "type": "Point", "coordinates": [ -71.081572, 42.340799 ] } },
{ "type": "Feature", "properties": { "ID": 51.0, "TERMINAL_N": "C32005", "NAME": "Washington St. at Lenox St." }, "geometry": { "type": "Point", "coordinates": [ -71.0790969, 42.3348756 ] } },
{ "type": "Feature", "properties": { "ID": 39.0, "TERMINAL_N": "C32006", "NAME": "Washington St. at Rutland St." }, "geometry": { "type": "Point", "coordinates": [ -71.074182, 42.338623 ] } },
{ "type": "Feature", "properties": { "ID": 21.0, "TERMINAL_N": "C32007", "NAME": "Prudential Center \/ Belvidere" }, "geometry": { "type": "Point", "coordinates": [ -71.082578, 42.345959 ] } },
{ "type": "Feature", "properties": { "ID": 61.0, "TERMINAL_N": "C32008", "NAME": "Boylston at Fairfield" }, "geometry": { "type": "Point", "coordinates": [ -71.082674, 42.348323 ] } },
{ "type": "Feature", "properties": { "ID": 63.0, "TERMINAL_N": "C32009", "NAME": "Dorchester Ave. at Gillette Park" }, "geometry": { "type": "Point", "coordinates": [ -71.057054, 42.344023 ] } },
{ "type": "Feature", "properties": { "ID": 64.0, "TERMINAL_N": "C32010", "NAME": "Congress \/ Sleeper" }, "geometry": { "type": "Point", "coordinates": [ -71.0496, 42.3511 ] } },
{ "type": "Feature", "properties": { "ID": 83.0, "TERMINAL_N": "C32011", "NAME": "South Bay Plaza" }, "geometry": { "type": "Point", "coordinates": [ -71.065928, 42.325941 ] } },
{ "type": "Feature", "properties": { "ID": 85.0, "TERMINAL_N": "C32012", "NAME": "Andrew Station - Dorchester Ave at Humboldt Pl" }, "geometry": { "type": "Point", "coordinates": [ -71.057007, 42.330825 ] } },
{ "type": "Feature", "properties": { "ID": 93.0, "TERMINAL_N": "C32013", "NAME": "JFK \/ UMASS Station" }, "geometry": { "type": "Point", "coordinates": [ -71.051122, 42.320494 ] } },
{ "type": "Feature", "properties": { "ID": 92.0, "TERMINAL_N": "C32014", "NAME": "University of Massachusetts Boston" }, "geometry": { "type": "Point", "coordinates": [ -71.035705, 42.311819 ] } },
{ "type": "Feature", "properties": { "ID": 6.0, "TERMINAL_N": "D32000", "NAME": "Cambridge St. at Joy St." }, "geometry": { "type": "Point", "coordinates": [ -71.06514, 42.361285 ] } },
{ "type": "Feature", "properties": { "ID": 37.0, "TERMINAL_N": "D32001", "NAME": "New Balance - 38 Guest St." }, "geometry": { "type": "Point", "coordinates": [ -71.146452, 42.357247 ] } },
{ "type": "Feature", "properties": { "ID": 26.0, "TERMINAL_N": "D32002", "NAME": "Washington St. at Waltham St." }, "geometry": { "type": "Point", "coordinates": [ -71.068922, 42.341522 ] } },
{ "type": "Feature", "properties": { "ID": 38.0, "TERMINAL_N": "D32003", "NAME": "TD Garden - Legends Way" }, "geometry": { "type": "Point", "coordinates": [ -71.060868, 42.366231 ] } },
{ "type": "Feature", "properties": { "ID": 35.0, "TERMINAL_N": "D32004", "NAME": "Summer St. \/ Arch St." }, "geometry": { "type": "Point", "coordinates": [ -71.05896, 42.354594 ] } },
{ "type": "Feature", "properties": { "ID": 36.0, "TERMINAL_N": "D32005", "NAME": "Boston Public Library - 700 Boylston St." }, "geometry": { "type": "Point", "coordinates": [ -71.077303, 42.349673 ] } },
{ "type": "Feature", "properties": { "ID": 40.0, "TERMINAL_N": "D32006", "NAME": "Lewis Wharf - Atlantic Ave." }, "geometry": { "type": "Point", "coordinates": [ -71.050877, 42.363871 ] } },
{ "type": "Feature", "properties": { "ID": 42.0, "TERMINAL_N": "D32007", "NAME": "Boylston St. at Arlington St." }, "geometry": { "type": "Point", "coordinates": [ -71.070378, 42.352096 ] } },
{ "type": "Feature", "properties": { "ID": 43.0, "TERMINAL_N": "D32008", "NAME": "Rowes Wharf - Atlantic Ave" }, "geometry": { "type": "Point", "coordinates": [ -71.050699, 42.357143 ] } },
{ "type": "Feature", "properties": { "ID": 44.0, "TERMINAL_N": "D32009", "NAME": "Faneuil Hall - Union St. at North St." }, "geometry": { "type": "Point", "coordinates": [ -71.056868, 42.360583 ] } },
{ "type": "Feature", "properties": { "ID": 47.0, "TERMINAL_N": "D32010", "NAME": "Cross St. at Hanover St." }, "geometry": { "type": "Point", "coordinates": [ -71.056067, 42.362811 ] } },
{ "type": "Feature", "properties": { "ID": 49.0, "TERMINAL_N": "D32011", "NAME": "Stuart St. at Charles St." }, "geometry": { "type": "Point", "coordinates": [ -71.066289, 42.351146 ] } },
{ "type": "Feature", "properties": { "ID": 48.0, "TERMINAL_N": "D32012", "NAME": "Post Office Square" }, "geometry": { "type": "Point", "coordinates": [ -71.055407, 42.356755 ] } },
{ "type": "Feature", "properties": { "ID": 50.0, "TERMINAL_N": "D32013", "NAME": "Boylston St \/ Berkeley St" }, "geometry": { "type": "Point", "coordinates": [ -71.073644, 42.350989 ] } },
{ "type": "Feature", "properties": { "ID": 54.0, "TERMINAL_N": "D32014", "NAME": "Tremont St \/ West St" }, "geometry": { "type": "Point", "coordinates": [ -71.063348, 42.354979 ] } },
{ "type": "Feature", "properties": { "ID": 59.0, "TERMINAL_N": "D32015", "NAME": "Chinatown Gate Plaza - Surface Rd. at Beach St." }, "geometry": { "type": "Point", "coordinates": [ -71.059367, 42.351356 ] } },
{ "type": "Feature", "properties": { "ID": 60.0, "TERMINAL_N": "D32016", "NAME": "Charles Circle - Charles St. at Cambridge St." }, "geometry": { "type": "Point", "coordinates": [ -71.07131, 42.360877 ] } },
{ "type": "Feature", "properties": { "ID": 58.0, "TERMINAL_N": "D32017", "NAME": "The Esplanade - Beacon St. at Arlington St." }, "geometry": { "type": "Point", "coordinates": [ -71.07278, 42.355596 ] } },
{ "type": "Feature", "properties": { "ID": 65.0, "TERMINAL_N": "D32018", "NAME": "Boston Convention & Exhibition Center" }, "geometry": { "type": "Point", "coordinates": [ -71.0441, 42.3475 ] } },
{ "type": "Feature", "properties": { "ID": 81.0, "TERMINAL_N": "D32019", "NAME": "Boylston St \/ Washington St" }, "geometry": { "type": "Point", "coordinates": [ -71.062679, 42.352409 ] } },
{ "type": "Feature", "properties": { "ID": 94.0, "TERMINAL_N": "D32020", "NAME": "Charlestown - Main St at Austin St" }, "geometry": { "type": "Point", "coordinates": [ -71.064608, 42.375603 ] } },
{ "type": "Feature", "properties": { "ID": 98.0, "TERMINAL_N": "D32021", "NAME": "Charlestown - Warren St at Chelsea St" }, "geometry": { "type": "Point", "coordinates": [ -71.060292, 42.371848 ] } },
{ "type": "Feature", "properties": { "ID": 69.0, "TERMINAL_N": "K32001", "NAME": "Coolidge Corner - Beacon St @ Centre St" }, "geometry": { "type": "Point", "coordinates": [ -71.123338, 42.341598 ] } },
{ "type": "Feature", "properties": { "ID": 82.0, "TERMINAL_N": "K32002", "NAME": "Brookline Town Hall \/ Library Washington St" }, "geometry": { "type": "Point", "coordinates": [ -71.120526, 42.333689 ] } },
{ "type": "Feature", "properties": { "ID": 86.0, "TERMINAL_N": "K32003", "NAME": "Brookline Village - Station Street @ MBTA" }, "geometry": { "type": "Point", "coordinates": [ -71.116205, 42.332799 ] } },
{ "type": "Feature", "properties": { "ID": 90.0, "TERMINAL_N": "M32001", "NAME": "Lechmere Station at Cambridge St \/ First St" }, "geometry": { "type": "Point", "coordinates": [ -71.07711, 42.3707 ] } },
{ "type": "Feature", "properties": { "ID": 91.0, "TERMINAL_N": "M32002", "NAME": "One Kendall Square at Hampshire St \/ Portland St" }, "geometry": { "type": "Point", "coordinates": [ -71.09169, 42.366277 ] } },
{ "type": "Feature", "properties": { "ID": 72.0, "TERMINAL_N": "M32003", "NAME": "One Broadway \/ Kendall Sq at Main St \/ 3rd St" }, "geometry": { "type": "Point", "coordinates": [ -71.084105, 42.362613 ] } },
{ "type": "Feature", "properties": { "ID": 80.0, "TERMINAL_N": "M32005", "NAME": "MIT Stata Center at Vassar St \/ Main St" }, "geometry": { "type": "Point", "coordinates": [ -71.090188, 42.362429 ] } },
{ "type": "Feature", "properties": { "ID": 67.0, "TERMINAL_N": "M32006", "NAME": "MIT at Mass Ave \/ Amherst St" }, "geometry": { "type": "Point", "coordinates": [ -71.093198, 42.3581 ] } },
{ "type": "Feature", "properties": { "ID": 95.0, "TERMINAL_N": "M32007", "NAME": "Cambridge St - at Columbia St \/ Webster Ave" }, "geometry": { "type": "Point", "coordinates": [ -71.094445, 42.372969 ] } },
{ "type": "Feature", "properties": { "ID": 75.0, "TERMINAL_N": "M32009", "NAME": "Lafayette Square at Mass Ave \/ Main St \/ Columbia St" }, "geometry": { "type": "Point", "coordinates": [ -71.10042, 42.363562 ] } },
{ "type": "Feature", "properties": { "ID": 88.0, "TERMINAL_N": "M32010", "NAME": "Inman Square at Vellucci Plaza \/ Hampshire St" }, "geometry": { "type": "Point", "coordinates": [ -71.101427, 42.374035 ] } },
{ "type": "Feature", "properties": { "ID": 68.0, "TERMINAL_N": "M32011", "NAME": "Central Square at Mass Ave \/ Essex St" }, "geometry": { "type": "Point", "coordinates": [ -71.1031, 42.36507 ] } },
{ "type": "Feature", "properties": { "ID": 76.0, "TERMINAL_N": "M32012", "NAME": "Central Sq Post Office \/ Cambridge City Hall at Mass Ave \/ Pleasant St" }, "geometry": { "type": "Point", "coordinates": [ -71.105495, 42.366426 ] } },
{ "type": "Feature", "properties": { "ID": 96.0, "TERMINAL_N": "M32013", "NAME": "Cambridge Main Library at Broadway \/ Trowbridge St" }, "geometry": { "type": "Point", "coordinates": [ -71.111075, 42.373379 ] } },
{ "type": "Feature", "properties": { "ID": 87.0, "TERMINAL_N": "M32014", "NAME": "Harvard University Housing - 115 Putnam Ave at Peabody Terrace" }, "geometry": { "type": "Point", "coordinates": [ -71.114214, 42.366621 ] } },
{ "type": "Feature", "properties": { "ID": 97.0, "TERMINAL_N": "M32015", "NAME": "Harvard  University River Houses at DeWolfe St \/ Cowperthwaite St" }, "geometry": { "type": "Point", "coordinates": [ -71.117152, 42.369182 ] } },
{ "type": "Feature", "properties": { "ID": 70.0, "TERMINAL_N": "M32016", "NAME": "Harvard Kennedy School at Bennett St \/ Eliot St" }, "geometry": { "type": "Point", "coordinates": [ -71.121851, 42.372244 ] } },
{ "type": "Feature", "properties": { "ID": 73.0, "TERMINAL_N": "M32017", "NAME": "Harvard Square at Brattle St \/ Eliot St" }, "geometry": { "type": "Point", "coordinates": [ -71.120886, 42.373231 ] } },
{ "type": "Feature", "properties": { "ID": 74.0, "TERMINAL_N": "M32018", "NAME": "Harvard Square at Mass Ave\/ Dunster" }, "geometry": { "type": "Point", "coordinates": [ -71.118579, 42.373268 ] } },
{ "type": "Feature", "properties": { "ID": 84.0, "TERMINAL_N": "M32019", "NAME": "CambridgeSide Galleria - CambridgeSide PL at Land Blvd" }, "geometry": { "type": "Point", "coordinates": [ -71.076472, 42.366981 ] } },
{ "type": "Feature", "properties": { "ID": 89.0, "TERMINAL_N": "M32020", "NAME": "Harvard Law School at Mass Ave \/ Jarvis St" }, "geometry": { "type": "Point", "coordinates": [ -71.119945, 42.379011 ] } },
{ "type": "Feature", "properties": { "ID": 77.0, "TERMINAL_N": "S32001", "NAME": "Somerville City Hall" }, "geometry": { "type": "Point", "coordinates": [ -71.096413, 42.386428 ] } },
{ "type": "Feature", "properties": { "ID": 78.0, "TERMINAL_N": "S32002", "NAME": "Union Square - Somerville" }, "geometry": { "type": "Point", "coordinates": [ -71.095319, 42.379637 ] } },
{ "type": "Feature", "properties": { "ID": 79.0, "TERMINAL_N": "S32003", "NAME": "Beacon St at Washington \/ Kirkland" }, "geometry": { "type": "Point", "coordinates": [ -71.106541, 42.378551 ] } },
{ "type": "Feature", "properties": { "ID": 71.0, "TERMINAL_N": "S32004", "NAME": "Conway Park - Somerville Avenue" }, "geometry": { "type": "Point", "coordinates": [ -71.107593, 42.383405 ] } }
]
}
