{
"type": "FeatureCollection",
"crs": { "type": "name", "properties": { "name": "urn:ogc:def:crs:OGC:1.3:CRS84" } },
                                                                                
"features": [
{ "type": "Feature", "properties": { "objectid_1": 1, "objectid": 1, "station": "RESERVOIR", "line": "GREEN" }, "geometry": { "type": "Point", "coordinates": [ -71.148724076959539, 42.335044799339769 ] } },
{ "type": "Feature", "properties": { "objectid_1": 2, "objectid": 2, "station": "BRAINTREE", "line": "RED" }, "geometry": { "type": "Point", "coordinates": [ -71.001549320273483, 42.207496931711283 ] } },
{ "type": "Feature", "properties": { "objectid_1": 3, "objectid": 3, "station": "ASHMONT", "line": "RED" }, "geometry": { "type": "Point", "coordinates": [ -71.063625996518908, 42.284396135447814 ] } },
{ "type": "Feature", "properties": { "objectid_1": 4, "objectid": 4, "station": "ORIENT HEIGHTS", "line": "BLUE" }, "geometry": { "type": "Point", "coordinates": [ -71.003462677244769, 42.387284359655411 ] } },
{ "type": "Feature", "properties": { "objectid_1": 5, "objectid": 5, "station": "ALEWIFE", "line": "RED" }, "geometry": { "type": "Point", "coordinates": [ -71.14207862278613, 42.396166032425938 ] } },
{ "type": "Feature", "properties": { "objectid_1": 6, "objectid": 6, "station": "PORTER", "line": "RED" }, "geometry": { "type": "Point", "coordinates": [ -71.118943167536216, 42.388198537560733 ] } },
{ "type": "Feature", "properties": { "objectid_1": 7, "objectid": 7, "station": "HARVARD", "line": "RED" }, "geometry": { "type": "Point", "coordinates": [ -71.118818845929624, 42.37347230946623 ] } },
{ "type": "Feature", "properties": { "objectid_1": 8, "objectid": 8, "station": "CENTRAL", "line": "RED" }, "geometry": { "type": "Point", "coordinates": [ -71.104033209306621, 42.365556115453472 ] } },
{ "type": "Feature", "properties": { "objectid_1": 9, "objectid": 9, "station": "KENDALL\/MIT", "line": "RED" }, "geometry": { "type": "Point", "coordinates": [ -71.086176528487144, 42.362490794679054 ] } },
{ "type": "Feature", "properties": { "objectid_1": 10, "objectid": 10, "station": "CHARLES\/MGH", "line": "RED" }, "geometry": { "type": "Point", "coordinates": [ -71.071356981147176, 42.361229005286859 ] } },
{ "type": "Feature", "properties": { "objectid_1": 11, "objectid": 11, "station": "SAVIN HILL", "line": "RED" }, "geometry": { "type": "Point", "coordinates": [ -71.053239152797772, 42.311301499044454 ] } },
{ "type": "Feature", "properties": { "objectid_1": 12, "objectid": 12, "station": "SHAWMUT", "line": "RED" }, "geometry": { "type": "Point", "coordinates": [ -71.065737960766739, 42.293125829825719 ] } },
{ "type": "Feature", "properties": { "objectid_1": 13, "objectid": 13, "station": "QUINCY ADAMS", "line": "RED" }, "geometry": { "type": "Point", "coordinates": [ -71.006816626985596, 42.233280064371286 ] } },
{ "type": "Feature", "properties": { "objectid_1": 14, "objectid": 14, "station": "QUINCY CENTER", "line": "RED" }, "geometry": { "type": "Point", "coordinates": [ -71.005025686174733, 42.251415393784107 ] } },
{ "type": "Feature", "properties": { "objectid_1": 15, "objectid": 15, "station": "WOLLASTON", "line": "RED" }, "geometry": { "type": "Point", "coordinates": [ -71.020336902272163, 42.2665138965979 ] } },
{ "type": "Feature", "properties": { "objectid_1": 16, "objectid": 16, "station": "NORTH QUINCY", "line": "RED" }, "geometry": { "type": "Point", "coordinates": [ -71.029635382948669, 42.275238650935165 ] } },
{ "type": "Feature", "properties": { "objectid_1": 17, "objectid": 17, "station": "FIELDS CORNER", "line": "RED" }, "geometry": { "type": "Point", "coordinates": [ -71.062430047339063, 42.299802524698052 ] } },
{ "type": "Feature", "properties": { "objectid_1": 18, "objectid": 18, "station": "ANDREW", "line": "RED" }, "geometry": { "type": "Point", "coordinates": [ -71.056871016771282, 42.329975003541783 ] } },
{ "type": "Feature", "properties": { "objectid_1": 19, "objectid": 19, "station": "BROADWAY", "line": "RED" }, "geometry": { "type": "Point", "coordinates": [ -71.057115158393927, 42.343364456514387 ] } },
{ "type": "Feature", "properties": { "objectid_1": 20, "objectid": 20, "station": "CEDAR GROVE", "line": "RED" }, "geometry": { "type": "Point", "coordinates": [ -71.060420815028564, 42.279718083667809 ] } },
{ "type": "Feature", "properties": { "objectid_1": 21, "objectid": 21, "station": "CAPEN STREET", "line": "RED" }, "geometry": { "type": "Point", "coordinates": [ -71.086905678913396, 42.267479395369385 ] } },
{ "type": "Feature", "properties": { "objectid_1": 22, "objectid": 22, "station": "VALLEY ROAD", "line": "RED" }, "geometry": { "type": "Point", "coordinates": [ -71.081503623531248, 42.268325818371871 ] } },
{ "type": "Feature", "properties": { "objectid_1": 23, "objectid": 23, "station": "CENTRAL AVENUE", "line": "RED" }, "geometry": { "type": "Point", "coordinates": [ -71.073608049120153, 42.269974157873541 ] } },
{ "type": "Feature", "properties": { "objectid_1": 24, "objectid": 24, "station": "MILTON", "line": "RED" }, "geometry": { "type": "Point", "coordinates": [ -71.067242091916455, 42.270321159539648 ] } },
{ "type": "Feature", "properties": { "objectid_1": 25, "objectid": 25, "station": "BUTLER", "line": "RED" }, "geometry": { "type": "Point", "coordinates": [ -71.062550284195794, 42.272359459576627 ] } },
{ "type": "Feature", "properties": { "objectid_1": 26, "objectid": 26, "station": "MATTAPAN", "line": "RED" }, "geometry": { "type": "Point", "coordinates": [ -71.092318773410028, 42.267455412478405 ] } },
{ "type": "Feature", "properties": { "objectid_1": 27, "objectid": 27, "station": "JFK\/UMASS", "line": "RED" }, "geometry": { "type": "Point", "coordinates": [ -71.052485847295387, 42.320739532421079 ] } },
{ "type": "Feature", "properties": { "objectid_1": 28, "objectid": 28, "station": "WOOD ISLAND", "line": "BLUE" }, "geometry": { "type": "Point", "coordinates": [ -71.022865394706713, 42.379640301523061 ] } },
{ "type": "Feature", "properties": { "objectid_1": 29, "objectid": 29, "station": "SUFFOLK DOWNS", "line": "BLUE" }, "geometry": { "type": "Point", "coordinates": [ -70.99712258679557, 42.390500674222729 ] } },
{ "type": "Feature", "properties": { "objectid_1": 30, "objectid": 30, "station": "BEACHMONT", "line": "BLUE" }, "geometry": { "type": "Point", "coordinates": [ -70.992319436862459, 42.397542335298297 ] } },
{ "type": "Feature", "properties": { "objectid_1": 31, "objectid": 31, "station": "REVERE BEACH", "line": "BLUE" }, "geometry": { "type": "Point", "coordinates": [ -70.992533205439472, 42.40784254251453 ] } },
{ "type": "Feature", "properties": { "objectid_1": 32, "objectid": 32, "station": "WONDERLAND", "line": "BLUE" }, "geometry": { "type": "Point", "coordinates": [ -70.991021735031509, 42.41460206245852 ] } },
{ "type": "Feature", "properties": { "objectid_1": 33, "objectid": 33, "station": "AIRPORT", "line": "BLUE" }, "geometry": { "type": "Point", "coordinates": [ -71.030349639772766, 42.374192280312521 ] } },
{ "type": "Feature", "properties": { "objectid_1": 34, "objectid": 34, "station": "MAVERICK", "line": "BLUE" }, "geometry": { "type": "Point", "coordinates": [ -71.03952957664508, 42.369118564807906 ] } },
{ "type": "Feature", "properties": { "objectid_1": 35, "objectid": 35, "station": "AQUARIUM", "line": "BLUE" }, "geometry": { "type": "Point", "coordinates": [ -71.051688126288823, 42.359557127247491 ] } },
{ "type": "Feature", "properties": { "objectid_1": 36, "objectid": 36, "station": "BOWDOIN", "line": "BLUE" }, "geometry": { "type": "Point", "coordinates": [ -71.062069377171156, 42.361156878500026 ] } },
{ "type": "Feature", "properties": { "objectid_1": 37, "objectid": 37, "station": "FOREST HILLS", "line": "ORANGE" }, "geometry": { "type": "Point", "coordinates": [ -71.114108728768755, 42.300732147633951 ] } },
{ "type": "Feature", "properties": { "objectid_1": 38, "objectid": 38, "station": "GREEN STREET", "line": "ORANGE" }, "geometry": { "type": "Point", "coordinates": [ -71.107566620931934, 42.310419707040147 ] } },
{ "type": "Feature", "properties": { "objectid_1": 39, "objectid": 39, "station": "ROXBURY CROSSING", "line": "ORANGE" }, "geometry": { "type": "Point", "coordinates": [ -71.095368252151374, 42.331385811107666 ] } },
{ "type": "Feature", "properties": { "objectid_1": 40, "objectid": 40, "station": "SULLIVAN SQUARE", "line": "ORANGE" }, "geometry": { "type": "Point", "coordinates": [ -71.076917740825664, 42.3851645849617 ] } },
{ "type": "Feature", "properties": { "objectid_1": 41, "objectid": 41, "station": "OAK GROVE", "line": "ORANGE" }, "geometry": { "type": "Point", "coordinates": [ -71.07080543544933, 42.437486976763175 ] } },
{ "type": "Feature", "properties": { "objectid_1": 42, "objectid": 42, "station": "MALDEN CENTER", "line": "ORANGE" }, "geometry": { "type": "Point", "coordinates": [ -71.074313715268431, 42.426585299444113 ] } },
{ "type": "Feature", "properties": { "objectid_1": 43, "objectid": 43, "station": "WELLINGTON", "line": "ORANGE" }, "geometry": { "type": "Point", "coordinates": [ -71.077149617711996, 42.401735135483101 ] } },
{ "type": "Feature", "properties": { "objectid_1": 44, "objectid": 44, "station": "COMMUNITY COLLEGE", "line": "ORANGE" }, "geometry": { "type": "Point", "coordinates": [ -71.069576903177307, 42.373655900019799 ] } },
{ "type": "Feature", "properties": { "objectid_1": 45, "objectid": 45, "station": "NE MEDICAL CENTER", "line": "ORANGE" }, "geometry": { "type": "Point", "coordinates": [ -71.063916323136283, 42.349839361980273 ] } },
{ "type": "Feature", "properties": { "objectid_1": 46, "objectid": 46, "station": "BACK BAY", "line": "ORANGE" }, "geometry": { "type": "Point", "coordinates": [ -71.075108415823451, 42.347532626028325 ] } },
{ "type": "Feature", "properties": { "objectid_1": 47, "objectid": 47, "station": "MASSACHUSETTS AVE", "line": "ORANGE" }, "geometry": { "type": "Point", "coordinates": [ -71.08339821027171, 42.341389769236009 ] } },
{ "type": "Feature", "properties": { "objectid_1": 48, "objectid": 48, "station": "RUGGLES", "line": "ORANGE" }, "geometry": { "type": "Point", "coordinates": [ -71.089309480025335, 42.33660628601352 ] } },
{ "type": "Feature", "properties": { "objectid_1": 49, "objectid": 49, "station": "JACKSON SQUARE", "line": "ORANGE" }, "geometry": { "type": "Point", "coordinates": [ -71.100246139997992, 42.322591806267077 ] } },
{ "type": "Feature", "properties": { "objectid_1": 50, "objectid": 50, "station": "STONY BROOK", "line": "ORANGE" }, "geometry": { "type": "Point", "coordinates": [ -71.104279623886796, 42.317223683012308 ] } },
{ "type": "Feature", "properties": { "objectid_1": 51, "objectid": 51, "station": "RIVERSIDE", "line": "GREEN" }, "geometry": { "type": "Point", "coordinates": [ -71.252675356250833, 42.33741647529871 ] } },
{ "type": "Feature", "properties": { "objectid_1": 52, "objectid": 52, "station": "WOODLAND", "line": "GREEN" }, "geometry": { "type": "Point", "coordinates": [ -71.243792282453029, 42.333091961400278 ] } },
{ "type": "Feature", "properties": { "objectid_1": 53, "objectid": 53, "station": "WABAN", "line": "GREEN" }, "geometry": { "type": "Point", "coordinates": [ -71.230775820465382, 42.325935866829887 ] } },
{ "type": "Feature", "properties": { "objectid_1": 54, "objectid": 54, "station": "ELIOT", "line": "GREEN" }, "geometry": { "type": "Point", "coordinates": [ -71.216810184296008, 42.319078668599715 ] } },
{ "type": "Feature", "properties": { "objectid_1": 55, "objectid": 55, "station": "NEWTON HIGHLANDS", "line": "GREEN" }, "geometry": { "type": "Point", "coordinates": [ -71.205484862865745, 42.32236496568953 ] } },
{ "type": "Feature", "properties": { "objectid_1": 56, "objectid": 56, "station": "NEWTON CENTRE", "line": "GREEN" }, "geometry": { "type": "Point", "coordinates": [ -71.192358558781265, 42.329401803625295 ] } },
{ "type": "Feature", "properties": { "objectid_1": 57, "objectid": 57, "station": "CHESTNUT HILL", "line": "GREEN" }, "geometry": { "type": "Point", "coordinates": [ -71.16460694245562, 42.326729655772823 ] } },
{ "type": "Feature", "properties": { "objectid_1": 58, "objectid": 58, "station": "BEACONSFIELD", "line": "GREEN" }, "geometry": { "type": "Point", "coordinates": [ -71.140263075299316, 42.335680911480452 ] } },
{ "type": "Feature", "properties": { "objectid_1": 59, "objectid": 59, "station": "BROOKLINE HILLS", "line": "GREEN" }, "geometry": { "type": "Point", "coordinates": [ -71.126546900516018, 42.331272444714806 ] } },
{ "type": "Feature", "properties": { "objectid_1": 60, "objectid": 60, "station": "BROOKLINE VILLAGE", "line": "GREEN" }, "geometry": { "type": "Point", "coordinates": [ -71.116827134053665, 42.332593710168091 ] } },
{ "type": "Feature", "properties": { "objectid_1": 61, "objectid": 61, "station": "LONGWOOD", "line": "GREEN" }, "geometry": { "type": "Point", "coordinates": [ -71.109934557367538, 42.341669107503179 ] } },
{ "type": "Feature", "properties": { "objectid_1": 62, "objectid": 62, "station": "FENWAY PARK", "line": "GREEN" }, "geometry": { "type": "Point", "coordinates": [ -71.104835221062132, 42.34503003712755 ] } },
{ "type": "Feature", "properties": { "objectid_1": 63, "objectid": 63, "station": "KENMORE", "line": "GREEN" }, "geometry": { "type": "Point", "coordinates": [ -71.095350882947116, 42.348868864211141 ] } },
{ "type": "Feature", "properties": { "objectid_1": 64, "objectid": 64, "station": "HYNES CONVENTION CTR\/ICA", "line": "GREEN" }, "geometry": { "type": "Point", "coordinates": [ -71.087417687000524, 42.348025347023601 ] } },
{ "type": "Feature", "properties": { "objectid_1": 65, "objectid": 65, "station": "ARLINGTON", "line": "GREEN" }, "geometry": { "type": "Point", "coordinates": [ -71.070968747824054, 42.351771133006672 ] } },
{ "type": "Feature", "properties": { "objectid_1": 66, "objectid": 66, "station": "COPLEY", "line": "GREEN" }, "geometry": { "type": "Point", "coordinates": [ -71.077711546074426, 42.349919547937361 ] } },
{ "type": "Feature", "properties": { "objectid_1": 67, "objectid": 67, "station": "SCIENCE PARK", "line": "GREEN" }, "geometry": { "type": "Point", "coordinates": [ -71.06765014385833, 42.366720960220874 ] } },
{ "type": "Feature", "properties": { "objectid_1": 68, "objectid": 68, "station": "LECHMERE", "line": "GREEN" }, "geometry": { "type": "Point", "coordinates": [ -71.077634032889534, 42.37127468490786 ] } },
{ "type": "Feature", "properties": { "objectid_1": 69, "objectid": 69, "station": "BOYLSTON", "line": "GREEN" }, "geometry": { "type": "Point", "coordinates": [ -71.064541913395843, 42.353041707051311 ] } },
{ "type": "Feature", "properties": { "objectid_1": 70, "objectid": 70, "station": "CHINATOWN", "line": "ORANGE" }, "geometry": { "type": "Point", "coordinates": [ -71.062527193176905, 42.352444369208989 ] } },
{ "type": "Feature", "properties": { "objectid_1": 71, "objectid": 71, "station": "HAYMARKET", "line": "ORANGE" }, "geometry": { "type": "Point", "coordinates": [ -71.057939297259381, 42.362983296292199 ] } },
{ "type": "Feature", "properties": { "objectid_1": 72, "objectid": 72, "station": "NORTH STATION", "line": "GREEN" }, "geometry": { "type": "Point", "coordinates": [ -71.060676124608136, 42.365755982999097 ] } },
{ "type": "Feature", "properties": { "objectid_1": 73, "objectid": 73, "station": "NORTH STATION", "line": "ORANGE" }, "geometry": { "type": "Point", "coordinates": [ -71.060529441788589, 42.365845451541411 ] } },
{ "type": "Feature", "properties": { "objectid_1": 74, "objectid": 74, "station": "PARK STREET", "line": "GREEN\/RED" }, "geometry": { "type": "Point", "coordinates": [ -71.062424201092654, 42.35639456774765 ] } },
{ "type": "Feature", "properties": { "objectid_1": 75, "objectid": 75, "station": "DOWNTOWN CROSSING", "line": "ORANGE\/RED" }, "geometry": { "type": "Point", "coordinates": [ -71.060284598697677, 42.355333066228283 ] } },
{ "type": "Feature", "properties": { "objectid_1": 76, "objectid": 76, "station": "SYMPHONY", "line": "GREEN" }, "geometry": { "type": "Point", "coordinates": [ -71.084900647993663, 42.342733263111512 ] } },
{ "type": "Feature", "properties": { "objectid_1": 77, "objectid": 77, "station": "PRUDENTIAL", "line": "GREEN" }, "geometry": { "type": "Point", "coordinates": [ -71.081361388765885, 42.345595739224677 ] } },
{ "type": "Feature", "properties": { "objectid_1": 78, "objectid": 78, "station": "NORTHEASTERN", "line": "GREEN" }, "geometry": { "type": "Point", "coordinates": [ -71.089467733721676, 42.340094361131342 ] } },
{ "type": "Feature", "properties": { "objectid_1": 79, "objectid": 79, "station": "MUSEUM OF FINE ARTS", "line": "GREEN" }, "geometry": { "type": "Point", "coordinates": [ -71.09514188898676, 42.337845744707288 ] } },
{ "type": "Feature", "properties": { "objectid_1": 80, "objectid": 80, "station": "LONGWOOD MEDICAL AREA", "line": "GREEN" }, "geometry": { "type": "Point", "coordinates": [ -71.099513681652937, 42.336162879690185 ] } },
{ "type": "Feature", "properties": { "objectid_1": 81, "objectid": 81, "station": "MISSION PARK", "line": "GREEN" }, "geometry": { "type": "Point", "coordinates": [ -71.107445946955977, 42.333243467778061 ] } },
{ "type": "Feature", "properties": { "objectid_1": 82, "objectid": 82, "station": "RIVERWAY", "line": "GREEN" }, "geometry": { "type": "Point", "coordinates": [ -71.111805979764497, 42.332104773051711 ] } },
{ "type": "Feature", "properties": { "objectid_1": 83, "objectid": 83, "station": "BACK OF THE HILL", "line": "GREEN" }, "geometry": { "type": "Point", "coordinates": [ -71.111553122683375, 42.330798493741092 ] } },
{ "type": "Feature", "properties": { "objectid_1": 84, "objectid": 84, "station": "SAINT PAUL STREET (C)", "line": "GREEN" }, "geometry": { "type": "Point", "coordinates": [ -71.117364249956637, 42.343160422224067 ] } },
{ "type": "Feature", "properties": { "objectid_1": 85, "objectid": 85, "station": "KENT STREET", "line": "GREEN" }, "geometry": { "type": "Point", "coordinates": [ -71.114453998706779, 42.343957585863379 ] } },
{ "type": "Feature", "properties": { "objectid_1": 86, "objectid": 86, "station": "SAINT MARYS STREET", "line": "GREEN" }, "geometry": { "type": "Point", "coordinates": [ -71.10699262182176, 42.346067701572977 ] } },
{ "type": "Feature", "properties": { "objectid_1": 87, "objectid": 87, "station": "HAWES STREET", "line": "GREEN" }, "geometry": { "type": "Point", "coordinates": [ -71.111174021366097, 42.344858647717111 ] } },
{ "type": "Feature", "properties": { "objectid_1": 88, "objectid": 88, "station": "ENGLEWOOD AVENUE", "line": "GREEN" }, "geometry": { "type": "Point", "coordinates": [ -71.145166747754871, 42.337057278175784 ] } },
{ "type": "Feature", "properties": { "objectid_1": 89, "objectid": 89, "station": "DEAN ROAD", "line": "GREEN" }, "geometry": { "type": "Point", "coordinates": [ -71.142108961147656, 42.337669000478975 ] } },
{ "type": "Feature", "properties": { "objectid_1": 90, "objectid": 90, "station": "FAIRBANKS STREET", "line": "GREEN" }, "geometry": { "type": "Point", "coordinates": [ -71.13129698042556, 42.339637981847382 ] } },
{ "type": "Feature", "properties": { "objectid_1": 91, "objectid": 91, "station": "WASHINGTON SQUARE", "line": "GREEN" }, "geometry": { "type": "Point", "coordinates": [ -71.135642109264694, 42.339211817223735 ] } },
{ "type": "Feature", "properties": { "objectid_1": 92, "objectid": 92, "station": "BRANDON HALL", "line": "GREEN" }, "geometry": { "type": "Point", "coordinates": [ -71.128711932455857, 42.340038169679048 ] } },
{ "type": "Feature", "properties": { "objectid_1": 93, "objectid": 93, "station": "SUMMIT AVE\/WINCHESTER ST", "line": "GREEN" }, "geometry": { "type": "Point", "coordinates": [ -71.125785491492337, 42.341024628502701 ] } },
{ "type": "Feature", "properties": { "objectid_1": 94, "objectid": 94, "station": "COOLIDGE CORNER", "line": "GREEN" }, "geometry": { "type": "Point", "coordinates": [ -71.121716653979192, 42.342017950922539 ] } },
{ "type": "Feature", "properties": { "objectid_1": 95, "objectid": 95, "station": "TAPPAN STREET", "line": "GREEN" }, "geometry": { "type": "Point", "coordinates": [ -71.138767949281672, 42.338427737280384 ] } },
{ "type": "Feature", "properties": { "objectid_1": 96, "objectid": 96, "station": "BOSTON COLLEGE", "line": "GREEN" }, "geometry": { "type": "Point", "coordinates": [ -71.167063620860972, 42.340170817714743 ] } },
{ "type": "Feature", "properties": { "objectid_1": 97, "objectid": 97, "station": "SOUTH STREET", "line": "GREEN" }, "geometry": { "type": "Point", "coordinates": [ -71.157240211524055, 42.339459982075496 ] } },
{ "type": "Feature", "properties": { "objectid_1": 98, "objectid": 98, "station": "CHESTNUT HILL AVENUE", "line": "GREEN" }, "geometry": { "type": "Point", "coordinates": [ -71.15287123173492, 42.338313071329189 ] } },
{ "type": "Feature", "properties": { "objectid_1": 99, "objectid": 99, "station": "CHISWICK ROAD", "line": "GREEN" }, "geometry": { "type": "Point", "coordinates": [ -71.15112326980443, 42.340474665541322 ] } },
{ "type": "Feature", "properties": { "objectid_1": 100, "objectid": 100, "station": "SUTHERLAND ROAD", "line": "GREEN" }, "geometry": { "type": "Point", "coordinates": [ -71.146327980222594, 42.341551615886132 ] } },
{ "type": "Feature", "properties": { "objectid_1": 101, "objectid": 101, "station": "WASHINGTON STREET", "line": "GREEN" }, "geometry": { "type": "Point", "coordinates": [ -71.142714492066688, 42.34386037742491 ] } },
{ "type": "Feature", "properties": { "objectid_1": 102, "objectid": 102, "station": "WARREN STREET", "line": "GREEN" }, "geometry": { "type": "Point", "coordinates": [ -71.140363184911536, 42.348458587906201 ] } },
{ "type": "Feature", "properties": { "objectid_1": 103, "objectid": 103, "station": "ALLSTON STREET", "line": "GREEN" }, "geometry": { "type": "Point", "coordinates": [ -71.13795498404599, 42.348688481872934 ] } },
{ "type": "Feature", "properties": { "objectid_1": 104, "objectid": 104, "station": "GRIGGS STREET", "line": "GREEN" }, "geometry": { "type": "Point", "coordinates": [ -71.134601104324787, 42.348709383192066 ] } },
{ "type": "Feature", "properties": { "objectid_1": 105, "objectid": 105, "station": "HARVARD AVENUE", "line": "GREEN" }, "geometry": { "type": "Point", "coordinates": [ -71.131405259219576, 42.350215607160749 ] } },
{ "type": "Feature", "properties": { "objectid_1": 106, "objectid": 106, "station": "PACKARDS CORNER", "line": "GREEN" }, "geometry": { "type": "Point", "coordinates": [ -71.125104231427514, 42.351869211347278 ] } },
{ "type": "Feature", "properties": { "objectid_1": 107, "objectid": 107, "station": "BABCOCK STREET", "line": "GREEN" }, "geometry": { "type": "Point", "coordinates": [ -71.121715390980157, 42.35180803472943 ] } },
{ "type": "Feature", "properties": { "objectid_1": 108, "objectid": 108, "station": "PLEASANT STREET", "line": "GREEN" }, "geometry": { "type": "Point", "coordinates": [ -71.119042963638364, 42.351477359117951 ] } },
{ "type": "Feature", "properties": { "objectid_1": 109, "objectid": 109, "station": "SAINT PAUL STREET (B)", "line": "GREEN" }, "geometry": { "type": "Point", "coordinates": [ -71.116120248669262, 42.351143535294021 ] } },
{ "type": "Feature", "properties": { "objectid_1": 110, "objectid": 110, "station": "BOSTON UNIVERSITY WEST", "line": "GREEN" }, "geometry": { "type": "Point", "coordinates": [ -71.113617083794793, 42.350836930871104 ] } },
{ "type": "Feature", "properties": { "objectid_1": 111, "objectid": 111, "station": "BOSTON UNIVERSITY CENTRAL", "line": "GREEN" }, "geometry": { "type": "Point", "coordinates": [ -71.106241722044871, 42.34993131646744 ] } },
{ "type": "Feature", "properties": { "objectid_1": 112, "objectid": 112, "station": "BOSTON UNIVERSITY EAST", "line": "GREEN" }, "geometry": { "type": "Point", "coordinates": [ -71.104224844026703, 42.349693130420384 ] } },
{ "type": "Feature", "properties": { "objectid_1": 113, "objectid": 113, "station": "BLANDFORD STREET", "line": "GREEN" }, "geometry": { "type": "Point", "coordinates": [ -71.100055660538246, 42.34919761256468 ] } },
{ "type": "Feature", "properties": { "objectid_1": 114, "objectid": 114, "station": "BRIGHAM CIRCLE", "line": "GREEN" }, "geometry": { "type": "Point", "coordinates": [ -71.104355512686183, 42.334316601087139 ] } },
{ "type": "Feature", "properties": { "objectid_1": 115, "objectid": 115, "station": "FENWOOD ROAD", "line": "GREEN" }, "geometry": { "type": "Point", "coordinates": [ -71.105810601766251, 42.333656508184156 ] } },
{ "type": "Feature", "properties": { "objectid_1": 116, "objectid": 116, "station": "DAVIS", "line": "RED" }, "geometry": { "type": "Point", "coordinates": [ -71.12221275434328, 42.39679405557569 ] } },
{ "type": "Feature", "properties": { "objectid_1": 117, "objectid": 117, "station": "STATE", "line": "BLUE\/ORANGE" }, "geometry": { "type": "Point", "coordinates": [ -71.057666030515918, 42.35890505655636 ] } },
{ "type": "Feature", "properties": { "objectid_1": 118, "objectid": 118, "station": "GOVERNMENT CENTER", "line": "BLUE\/GREEN" }, "geometry": { "type": "Point", "coordinates": [ -71.059305735948172, 42.35944871231488 ] } },
{ "type": "Feature", "properties": { "objectid_1": 119, "objectid": 119, "station": "HEATH STREET", "line": "GREEN" }, "geometry": { "type": "Point", "coordinates": [ -71.110294010135945, 42.328255404037101 ] } },
{ "type": "Feature", "properties": { "objectid_1": 120, "objectid": 120, "station": "SOUTH STATION", "line": "RED" }, "geometry": { "type": "Point", "coordinates": [ -71.055165000650078, 42.35257198858519 ] } },
{ "type": "Feature", "properties": { "objectid_1": 121, "objectid": 121, "station": "CLEVELAND CIRCLE", "line": "GREEN" }, "geometry": { "type": "Point", "coordinates": [ -71.150038500037283, 42.335981171662546 ] } },
{ "type": "Feature", "properties": { "objectid_1": 122, "objectid": 122, "station": "AIRPORT TERMINAL B 2", "line": "SILVER" }, "geometry": { "type": "Point", "coordinates": [ -71.018552991245656, 42.363686073044619 ] } },
{ "type": "Feature", "properties": { "objectid_1": 123, "objectid": 123, "station": "DRY DOCK AVE @ DESIGN CENTER PL", "line": "SILVER" }, "geometry": { "type": "Point", "coordinates": [ -71.034310245403276, 42.344653491184559 ] } },
{ "type": "Feature", "properties": { "objectid_1": 124, "objectid": 124, "station": "LENOX ST", "line": "SILVER" }, "geometry": { "type": "Point", "coordinates": [ -71.078805445301867, 42.335072106433081 ] } },
{ "type": "Feature", "properties": { "objectid_1": 125, "objectid": 125, "station": "MASSACHUSETTS AVE", "line": "SILVER" }, "geometry": { "type": "Point", "coordinates": [ -71.076961598349897, 42.336518748543526 ] } },
{ "type": "Feature", "properties": { "objectid_1": 126, "objectid": 126, "station": "NEWTON ST", "line": "SILVER" }, "geometry": { "type": "Point", "coordinates": [ -71.073585396797327, 42.338902182702768 ] } },
{ "type": "Feature", "properties": { "objectid_1": 127, "objectid": 127, "station": "UNION PARK ST", "line": "SILVER" }, "geometry": { "type": "Point", "coordinates": [ -71.069600838123407, 42.341341198068044 ] } },
{ "type": "Feature", "properties": { "objectid_1": 128, "objectid": 128, "station": "E. BERKELEY ST", "line": "SILVER" }, "geometry": { "type": "Point", "coordinates": [ -71.065895451542275, 42.343949934522001 ] } },
{ "type": "Feature", "properties": { "objectid_1": 129, "objectid": 129, "station": "HERALD ST", "line": "SILVER" }, "geometry": { "type": "Point", "coordinates": [ -71.064562552618298, 42.346653650701874 ] } },
{ "type": "Feature", "properties": { "objectid_1": 130, "objectid": 130, "station": "WORCESTER SQUARE", "line": "SILVER" }, "geometry": { "type": "Point", "coordinates": [ -71.075598218272788, 42.337471973985274 ] } },
{ "type": "Feature", "properties": { "objectid_1": 131, "objectid": 131, "station": "MELNEA CASS BLVD", "line": "SILVER" }, "geometry": { "type": "Point", "coordinates": [ -71.081009402913494, 42.332943086603841 ] } },
{ "type": "Feature", "properties": { "objectid_1": 132, "objectid": 132, "station": "NE MEDICAL CENTER", "line": "SILVER" }, "geometry": { "type": "Point", "coordinates": [ -71.063915932229392, 42.349070736096458 ] } },
{ "type": "Feature", "properties": { "objectid_1": 133, "objectid": 133, "station": "NORTHERN AVE @ TIDE ST", "line": "SILVER" }, "geometry": { "type": "Point", "coordinates": [ -71.031781832562729, 42.345103498567035 ] } },
{ "type": "Feature", "properties": { "objectid_1": 134, "objectid": 134, "station": "NORTHERN AVE @ HARBOR ST", "line": "SILVER" }, "geometry": { "type": "Point", "coordinates": [ -71.035057263790037, 42.346630409985849 ] } },
{ "type": "Feature", "properties": { "objectid_1": 135, "objectid": 135, "station": "AIRPORT TERMINAL B 1", "line": "SILVER" }, "geometry": { "type": "Point", "coordinates": [ -71.01854353610544, 42.361339647212219 ] } },
{ "type": "Feature", "properties": { "objectid_1": 136, "objectid": 136, "station": "AIRPORT TERMINAL A", "line": "SILVER" }, "geometry": { "type": "Point", "coordinates": [ -71.021127634703561, 42.364756914917969 ] } },
{ "type": "Feature", "properties": { "objectid_1": 137, "objectid": 137, "station": "AIRPORT TERMINAL CD", "line": "SILVER" }, "geometry": { "type": "Point", "coordinates": [ -71.01780881342151, 42.36727511875003 ] } },
{ "type": "Feature", "properties": { "objectid_1": 138, "objectid": 138, "station": "AIRPORT TERMINAL E", "line": "SILVER" }, "geometry": { "type": "Point", "coordinates": [ -71.020872174389396, 42.369884133493017 ] } },
{ "type": "Feature", "properties": { "objectid_1": 139, "objectid": 139, "station": "SILVER LINE WAY", "line": "SILVER" }, "geometry": { "type": "Point", "coordinates": [ -71.038370618353184, 42.347165930549806 ] } },
{ "type": "Feature", "properties": { "objectid_1": 140, "objectid": 140, "station": "WORLD TRADE CENTER", "line": "SILVER" }, "geometry": { "type": "Point", "coordinates": [ -71.04269499994821, 42.348354717463039 ] } },
{ "type": "Feature", "properties": { "objectid_1": 141, "objectid": 141, "station": "COURTHOUSE", "line": "SILVER" }, "geometry": { "type": "Point", "coordinates": [ -71.046813508029103, 42.352414463514265 ] } },
{ "type": "Feature", "properties": { "objectid_1": 142, "objectid": 142, "station": "SOUTH STATION", "line": "SILVER" }, "geometry": { "type": "Point", "coordinates": [ -71.055157016341767, 42.352574771111541 ] } },
{ "type": "Feature", "properties": { "objectid_1": 143, "objectid": 143, "station": "SUMMER ST @ POWERHOUSE ST", "line": "SILVER" }, "geometry": { "type": "Point", "coordinates": [ -71.035612471662077, 42.339892258106197 ] } },
{ "type": "Feature", "properties": { "objectid_1": 144, "objectid": 144, "station": "E FIRST ST @ M ST", "line": "SILVER" }, "geometry": { "type": "Point", "coordinates": [ -71.033432668834479, 42.338195940761267 ] } },
{ "type": "Feature", "properties": { "objectid_1": 145, "objectid": 145, "station": "CITY POINT BUS TERMINAL", "line": "SILVER" }, "geometry": { "type": "Point", "coordinates": [ -71.031996510416292, 42.338486638541838 ] } },
{ "type": "Feature", "properties": { "objectid_1": 146, "objectid": 146, "station": "88 BLACK FALCON", "line": "SILVER" }, "geometry": { "type": "Point", "coordinates": [ -71.026435516394301, 42.344002374392112 ] } },
{ "type": "Feature", "properties": { "objectid_1": 147, "objectid": 147, "station": "21 DRY DOCK AVE", "line": "SILVER" }, "geometry": { "type": "Point", "coordinates": [ -71.031526201314477, 42.344720957377788 ] } },
{ "type": "Feature", "properties": { "objectid_1": 148, "objectid": 148, "station": "25 DRY DOCK AVE", "line": "SILVER" }, "geometry": { "type": "Point", "coordinates": [ -71.029959665654758, 42.3447488877624 ] } },
{ "type": "Feature", "properties": { "objectid_1": 149, "objectid": 149, "station": "BLACK FALCON @ DESIGN CENTER", "line": "SILVER" }, "geometry": { "type": "Point", "coordinates": [ -71.034305102406776, 42.34388371829904 ] } },
{ "type": "Feature", "properties": { "objectid_1": 150, "objectid": 150, "station": "DRY DOCK AVE @ HARBOR ST", "line": "SILVER" }, "geometry": { "type": "Point", "coordinates": [ -71.037472951288606, 42.344614490301403 ] } },
{ "type": "Feature", "properties": { "objectid_1": 151, "objectid": 151, "station": "BOYLSTON", "line": "SILVER" }, "geometry": { "type": "Point", "coordinates": [ -71.064198841898303, 42.353370701809702 ] } },
{ "type": "Feature", "properties": { "objectid_1": 152, "objectid": 152, "station": "CHINATOWN", "line": "SILVER" }, "geometry": { "type": "Point", "coordinates": [ -71.062568168400304, 42.352415265606552 ] } },
{ "type": "Feature", "properties": { "objectid_1": 153, "objectid": 153, "station": "DOWNTOWN CROSSING", "line": "SILVER" }, "geometry": { "type": "Point", "coordinates": [ -71.061162760334611, 42.354808062264766 ] } },
{ "type": "Feature", "properties": { "objectid_1": 154, "objectid": 154, "station": "DUDLEY SQUARE", "line": "SILVER" }, "geometry": { "type": "Point", "coordinates": [ -71.083719313721019, 42.329703993266897 ] } }
]
}
